{
  "833960fffffffff": {
    "osm_id": 2202162,
    "name": "France",
    "level": "country",
    "area": 1207513012894.1863,
    "lat": 46.603354,
    "lon": 1.8883335
  },
  "8539601bfffffff": {
    "osm_id": 35738,
    "name": "Toulouse",
    "level": "city",
    "area": 118151855.6827498,
    "lat": 43.6044638,
    "lon": 1.4442433
  },
  "8839601a17fffff": {
    "osm_id": 2344059,
    "name": "Minimes / Barrière de Paris",
    "level": "district",
    "area": 5967010.042567372,
    "lat": 43.6306577,
    "lon": 1.4317601
  },
  "8839601a3bfffff": {
    "osm_id": 2344059,
    "name": "Minimes / Barrière de Paris",
    "level": "district",
    "area": 5967010.0426158905,
    "lat": 43.6306577,
    "lon": 1.4317601
  },
  "8839601aa1fffff": {
    "osm_id": 1684034,
    "name": "Les Chalets / Bayard",
    "level": "district",
    "area": 1404243.7687199414,
    "lat": 43.6055183,
    "lon": 1.4527833
  },
  "8839601aa9fffff": {
    "osm_id": 1684025,
    "name": "Capitole / Arnaud Bernard",
    "level": "district",
    "area": 2046819.8224312067,
    "lat": 43.6019895,
    "lon": 1.4436653
  },
  "8839601aadfffff": {
    "osm_id": 1903926,
    "name": "Saint-Michel / Saint-Agne",
    "level": "district",
    "area": 4186497.93499161,
    "lat": 43.5832139,
    "lon": 1.4415339
  },
  "8839601ae1fffff": {
    "osm_id": 1684025,
    "name": "Capitole / Arnaud Bernard",
    "level": "district",
    "area": 2046819.8224312067,
    "lat": 43.6019895,
    "lon": 1.4436653
  },
  "8839601ae3fffff": {
    "osm_id": 1684034,
    "name": "Les Chalets / Bayard",
    "level": "district",
    "area": 1404243.7687199414,
    "lat": 43.6055183,
    "lon": 1.4527833
  },
  "8839601ae5fffff": {
    "osm_id": 1684025,
    "name": "Capitole / Arnaud Bernard",
    "level": "district",
    "area": 2046819.8223512173,
    "lat": 43.6019895,
    "lon": 1.4436653
  },
  "8839601ae7fffff": {
    "osm_id": 1684025,
    "name": "Capitole / Arnaud Bernard",
    "level": "district",
    "area": 2046819.8224312067,
    "lat": 43.6019895,
    "lon": 1.4436653
  },
  "8839601ae9fffff": {
    "osm_id": 2344059,
    "name": "Minimes / Barrière de Paris",
    "level": "district",
    "area": 5967010.042567372,
    "lat": 43.6306577,
    "lon": 1.4317601
  },
  "8839601aedfffff": {
    "osm_id": 2344059,
    "name": "Minimes / Barrière de Paris",
    "level": "district",
    "area": 5967010.0426158905,
    "lat": 43.6306577,
    "lon": 1.4317601
  }
}
